{
"type": "FeatureCollection",
"crs": { "type": "name", "properties": { "name": "urn:ogc:def:crs:OGC:1.3:CRS84" } },
                                                                                
"features": [
{ "type": "Feature", "properties": { "cat": 1, "cat_": 29, "Tipo": "Comercio", "Nombre": "Plaza Lincoln", "Localidad": "LINCOLN" }, "geometry": { "type": "Point", "coordinates": [ -84.055737845187892, 9.962355997153951 ] } },
{ "type": "Feature", "properties": { "cat": 2, "cat_": 31, "Tipo": "Comercio", "Nombre": "Mall Don Pancho", "Localidad": "SAN ANTONIO" }, "geometry": { "type": "Point", "coordinates": [ -84.034297936426924, 9.968874076983312 ] } },
{ "type": "Feature", "id": -1294967293, "properties": { "cat": 3, "cat_": 32, "Tipo": "Comercio", "Nombre": "Centro Comercial El Cruce", "Localidad": "LLAMAS DEL BOSQUE" }, "geometry": { "type": "Point", "coordinates": [ -84.037619961409973, 9.965958081767946 ] } },
{ "type": "Feature", "id": -294967292, "properties": { "cat": 4, "cat_": 33, "Tipo": "Comercio", "Nombre": "Pali", "Localidad": "LLAMAS DEL BOSQUE" }, "geometry": { "type": "Point", "coordinates": [ -84.037874120397817, 9.965886061986979 ] } },
{ "type": "Feature", "id": 705032709, "properties": { "cat": 5, "cat_": 35, "Tipo": "Comercio", "Nombre": "Ferreteria El Lagar", "Localidad": "LLAMAS DEL BOSQUE" }, "geometry": { "type": "Point", "coordinates": [ -84.038582094234656, 9.965346048038754 ] } },
{ "type": "Feature", "id": 1705032710, "properties": { "cat": 6, "cat_": 37, "Tipo": "Comercio", "Nombre": "Centro Comercial Los Colegios", "Localidad": "PLAZA" }, "geometry": { "type": "Point", "coordinates": [ -84.060875597575844, 9.962355100448217 ] } },
{ "type": "Feature", "id": -1589934585, "properties": { "cat": 7, "cat_": 38, "Tipo": "Comercio", "Nombre": "Pequno Mundo", "Localidad": "LOS ROBLES" }, "geometry": { "type": "Point", "coordinates": [ -84.051398948461724, 9.962698650406628 ] } },
{ "type": "Feature", "id": -589934584, "properties": { "cat": 8, "cat_": 39, "Tipo": "Comercio", "Nombre": "JUMBO", "Localidad": "LOS ROBLES" }, "geometry": { "type": "Point", "coordinates": [ -84.049783140586115, 9.962392933114536 ] } },
{ "type": "Feature", "id": 410065417, "properties": { "cat": 9, "cat_": 40, "Tipo": "Comercio", "Nombre": "Fotografia Jimenez", "Localidad": "CENTRAL" }, "geometry": { "type": "Point", "coordinates": [ -84.048766453196833, 9.962195107660179 ] } },
{ "type": "Feature", "id": 1410065418, "properties": { "cat": 10, "cat_": 42, "Tipo": "Comercio", "Nombre": "Joyeria San Vicente", "Localidad": "CENTRAL" }, "geometry": { "type": "Point", "coordinates": [ -84.047749696350579, 9.961511339440676 ] } },
{ "type": "Feature", "id": -1884901877, "properties": { "cat": 11, "cat_": 43, "Tipo": "Comercio", "Nombre": "Hot Shoes", "Localidad": "CENTRAL" }, "geometry": { "type": "Point", "coordinates": [ -84.047767816872238, 9.961277365891746 ] } },
{ "type": "Feature", "id": -884901876, "properties": { "cat": 12, "cat_": 44, "Tipo": "Comercio", "Nombre": "Centro Comercial Solis", "Localidad": "CENTRAL" }, "geometry": { "type": "Point", "coordinates": [ -84.047459155780572, 9.96104343891589 ] } },
{ "type": "Feature", "id": 115098125, "properties": { "cat": 13, "cat_": 45, "Tipo": "Comercio", "Nombre": "TecnoLab", "Localidad": "CENTRAL" }, "geometry": { "type": "Point", "coordinates": [ -84.047096057381125, 9.960989496994721 ] } },
{ "type": "Feature", "id": 1115098126, "properties": { "cat": 14, "cat_": 46, "Tipo": "Comercio", "Nombre": "Mutual Alajuela", "Localidad": "CENTRAL" }, "geometry": { "type": "Point", "coordinates": [ -84.046914504368459, 9.960935529236325 ] } },
{ "type": "Feature", "id": 2115098127, "properties": { "cat": 15, "cat_": 47, "Tipo": "Comercio", "Nombre": "Souvenirs La Carreta", "Localidad": "ULLOA" }, "geometry": { "type": "Point", "coordinates": [ -84.047005127585692, 9.959891645996471 ] } },
{ "type": "Feature", "id": -1179869168, "properties": { "cat": 16, "cat_": 48, "Tipo": "Comercio", "Nombre": "Souvenirs El Tucan", "Localidad": "ULLOA" }, "geometry": { "type": "Point", "coordinates": [ -84.047005086370021, 9.959603681714148 ] } },
{ "type": "Feature", "id": -179869167, "properties": { "cat": 17, "cat_": 49, "Tipo": "Comercio", "Nombre": "MegaSuper", "Localidad": "ARTESANIAS" }, "geometry": { "type": "Point", "coordinates": [ -84.046950414616958, 9.958145870114423 ] } },
{ "type": "Feature", "id": 820130834, "properties": { "cat": 18, "cat_": 52, "Tipo": "Comercio", "Nombre": "Servicio AutoPits", "Localidad": "LINCOLN" }, "geometry": { "type": "Point", "coordinates": [ -84.058152467892526, 9.962697543042104 ] } },
{ "type": "Feature", "id": 1820130835, "properties": { "cat": 19, "cat_": 53, "Tipo": "Comercio", "Nombre": "Repuestos Gigante", "Localidad": "PLAZA" }, "geometry": { "type": "Point", "coordinates": [ -84.061728846906746, 9.962264955072079 ] } },
{ "type": "Feature", "id": -1474836460, "properties": { "cat": 20, "cat_": 54, "Tipo": "Comercio", "Nombre": "Libreria Guila", "Localidad": "GUARIA" }, "geometry": { "type": "Point", "coordinates": [ -84.054938443462646, 9.95877457433115 ] } },
{ "type": "Feature", "id": -474836459, "properties": { "cat": 21, "cat_": 55, "Tipo": "Comercio", "Nombre": "AMPM", "Localidad": "GUARIA" }, "geometry": { "type": "Point", "coordinates": [ -84.05495671230652, 9.959458486457498 ] } },
{ "type": "Feature", "id": 525163542, "properties": { "cat": 22, "cat_": 56, "Tipo": "Comercio", "Nombre": "Vivero El Paraiso", "Localidad": "GUARIA" }, "geometry": { "type": "Point", "coordinates": [ -84.05493866022924, 9.960070413466136 ] } },
{ "type": "Feature", "id": 1525163543, "properties": { "cat": 23, "cat_": 57, "Tipo": "Comercio", "Nombre": "Farmacia Fischel", "Localidad": "FLORENCIA" }, "geometry": { "type": "Point", "coordinates": [ -84.054920547891015, 9.96032238515963 ] } },
{ "type": "Feature", "id": -1769803752, "properties": { "cat": 24, "cat_": 58, "Tipo": "Comercio", "Nombre": "Mini Super La Gaviota", "Localidad": "MONTELIMAR" }, "geometry": { "type": "Point", "coordinates": [ -84.055101184071631, 9.95490502720569 ] } },
{ "type": "Feature", "id": -769803751, "properties": { "cat": 25, "cat_": 59, "Tipo": "Comercio", "Nombre": "Lubricentro Fonseca", "Localidad": "GAVIOTA" }, "geometry": { "type": "Point", "coordinates": [ -84.05502897427354, 9.957334738019975 ] } },
{ "type": "Feature", "id": 230196250, "properties": { "cat": 26, "cat_": 60, "Tipo": "Comercio", "Nombre": "Farmacia Brenes", "Localidad": "GAVIOTA" }, "geometry": { "type": "Point", "coordinates": [ -84.054992614402749, 9.957028781937277 ] } },
{ "type": "Feature", "id": 1230196251, "properties": { "cat": 27, "cat_": 61, "Tipo": "Comercio", "Nombre": "Pulperia Don Alvaro", "Localidad": "MONTELIMAR" }, "geometry": { "type": "Point", "coordinates": [ -84.058296391898551, 9.955300436243459 ] } },
{ "type": "Feature", "id": -2064771044, "properties": { "cat": 28, "cat_": 62, "Tipo": "Comercio", "Nombre": "Farmacia Los Santos", "Localidad": "MONTELIMAR" }, "geometry": { "type": "Point", "coordinates": [ -84.057860668619895, 9.955174527553044 ] } },
{ "type": "Feature", "id": -1064771043, "properties": { "cat": 29, "cat_": 63, "Tipo": "Comercio", "Nombre": "Mufflas William", "Localidad": "HOGARES" }, "geometry": { "type": "Point", "coordinates": [ -84.05497398428902, 9.954185137286872 ] } },
{ "type": "Feature", "id": -64771042, "properties": { "cat": 30, "cat_": 64, "Tipo": "Comercio", "Nombre": "Servicios RERE", "Localidad": "LOS GONZALEZ" }, "geometry": { "type": "Point", "coordinates": [ -84.047804385385248, 9.963059139417203 ] } },
{ "type": "Feature", "id": 935228959, "properties": { "cat": 31, "cat_": 65, "Tipo": "Comercio", "Nombre": "MiniSuper La Plaza", "Localidad": "LA CARRETA" }, "geometry": { "type": "Point", "coordinates": [ -84.044591318905077, 9.965309304247562 ] } },
{ "type": "Feature", "id": 1935228960, "properties": { "cat": 32, "cat_": 66, "Tipo": "Comercio", "Nombre": "Panaderia Musmani", "Localidad": "LA CARRETA" }, "geometry": { "type": "Point", "coordinates": [ -84.045680893143981, 9.967378899537049 ] } },
{ "type": "Feature", "id": -1359738335, "properties": { "cat": 33, "cat_": 67, "Tipo": "Comercio", "Nombre": "Taller Hernandez", "Localidad": "LAS AMERICAS" }, "geometry": { "type": "Point", "coordinates": [ -84.044881433495121, 9.962663594085049 ] } },
{ "type": "Feature", "id": -359738334, "properties": { "cat": 34, "cat_": 68, "Tipo": "Comercio", "Nombre": "Muflas Bulldog", "Localidad": "LAS AMERICAS" }, "geometry": { "type": "Point", "coordinates": [ -84.045062979724605, 9.962663569644981 ] } },
{ "type": "Feature", "id": 640261667, "properties": { "cat": 35, "cat_": 69, "Tipo": "Comercio", "Nombre": "Panaderia PPK", "Localidad": "LOS GONZALEZ" }, "geometry": { "type": "Point", "coordinates": [ -84.046569703641453, 9.961889459087921 ] } },
{ "type": "Feature", "id": 1640261668, "properties": { "cat": 36, "cat_": 70, "Tipo": "Comercio", "Nombre": "Panaderia Musmani", "Localidad": "LOS GONZALEZ" }, "geometry": { "type": "Point", "coordinates": [ -84.046969065776494, 9.961619436692905 ] } },
{ "type": "Feature", "id": -1654705627, "properties": { "cat": 37, "cat_": 71, "Tipo": "Comercio", "Nombre": "Libreria Paracito", "Localidad": "PARACITO" }, "geometry": { "type": "Point", "coordinates": [ -84.025185925893922, 9.992091985936407 ] } },
{ "type": "Feature", "id": -654705626, "properties": { "cat": 38, "cat_": 72, "Tipo": "Comercio", "Nombre": "Super Amelia", "Localidad": "PARACITO" }, "geometry": { "type": "Point", "coordinates": [ -84.025403809353946, 9.992199955814952 ] } },
{ "type": "Feature", "id": 345294375, "properties": { "cat": 39, "cat_": 73, "Tipo": "Comercio", "Nombre": "Super Irazu", "Localidad": "EL ALTO" }, "geometry": { "type": "Point", "coordinates": [ -84.029760445432231, 9.982660792011181 ] } },
{ "type": "Feature", "id": 1345294376, "properties": { "cat": 40, "cat_": 74, "Tipo": "Comercio", "Nombre": "Farmacia Divino Nino", "Localidad": "EL ALTO" }, "geometry": { "type": "Point", "coordinates": [ -84.029215802327073, 9.982984799620429 ] } },
{ "type": "Feature", "id": -1949672919, "properties": { "cat": 41, "cat_": 75, "Tipo": "Comercio", "Nombre": "Super Maria Fernanda", "Localidad": "CARLOMAGNO" }, "geometry": { "type": "Point", "coordinates": [ -84.033190794696139, 9.971951805744125 ] } }
]
}
